Index  Computer Time  INS Time  OmegaX[°/s]  OmegaY[°/s]  OmegaZ[°/s]  fX[m/s/s]  fY[m/s/s]  fZ[m/s/s]  Temperature[°C]  BaroPressure[Pa]  BaroAltitude[m]  Roll[°]  Pitch[°]  Heading[°]  INS_Speed[m/s]  INS_Altitude[m]  INS_Latitude[°]  INS_Longitude[°]  GNSS_Date  GNSS_UTC  GNSS_SatView[]  GNSS_SatInUse[]  GNSS_PDOP[]  GNSS_HDOP[]  GNSS_VDOP[]  GNSS_TrackingAngle[°]  GNSS_MagnDeclination[°]  GNNS_Speed[m/s]  GNNS_Altitude[m]  GNNS_Latitude[°]  GNNS_Longitude[°]  
675  25.11.2023 14:13:40.170  206,96  -0,241225  -0,473617  -0,527170  -0,331771  0,230710  9,736380  29,69  0  0,00  0,000  0,000  0,000  0,00  0,00  0,00000000  0,00000000  0  0  16  0  23,1  23,1  23,1  0,000  0,0  0,00  0,00  0,00000000  0,00000000  
676  25.11.2023 14:13:40.170  206,96  -0,241225  -0,473617  -0,527170  -0,331771  0,230710  9,736380  29,69  0  0,00  0,000  0,000  0,000  0,00  0,00  0,00000000  0,00000000  0  0  16  0  23,1  23,1  23,1  0,000  0,0  0,00  0,00  0,00000000  0,00000000  
677  25.11.2023 14:13:40.188  206,98  -0,226641  -0,405451  -0,488717  -0,319908  0,225232  9,705769  29,69  0  0,00  0,000  0,000  0,000  0,00  0,00  0,00000000  0,00000000  0  0  16  0  23,1  23,1  23,1  0,000  0,0  0,00  0,00  0,00000000  0,00000000  
678  25.11.2023 14:13:40.219  207,00  -0,188301  -0,450521  -0,511878  -0,333747  0,217932  9,723003  29,69  0  0,00  0,000  0,000  0,000  0,00  0,00  0,00000000  0,00000000  0  0  16  0  23,1  23,1  23,1  0,000  0,0  0,00  0,00  0,00000000  0,00000000  
679  25.11.2023 14:13:40.234  207,02  -0,287581  -0,360034  -0,495913  -0,328899  0,225222  9,731953  29,68  0  0,00  0,000  0,000  0,000  0,00  0,00  0,00000000  0,00000000  0  0  16  0  23,1  23,1  23,1  0,000  0,0  0,00  0,00  0,00000000  0,00000000  
680  25.11.2023 14:13:40.234  207,04  -0,301556  -0,435785  -0,542664  -0,329616  0,219541  9,746846  29,68  0  0,00  0,000  0,000  0,000  0,00  0,00  0,00000000  0,00000000  0  0  16  0  23,1  23,1  23,1  0,000  0,0  0,00  0,00  0,00000000  0,00000000  
681  25.11.2023 14:13:40.265  207,06  -0,211875  -0,389276  -0,525924  -0,325814  0,227485  9,727053  29,68  0  0,00  0,000  0,000  0,000  0,00  0,00  0,00000000  0,00000000  0  0  16  0  23,1  23,1  23,1  0,000  0,0  0,00  0,00  0,00000000  0,00000000  
682  25.11.2023 14:13:40.281  207,08  -0,241648  -0,405325  -0,504000  -0,330103  0,226492  9,735226  29,68  0  0,00  0,000  0,000  0,000  0,00  0,00  0,00000000  0,00000000  0  0  16  0  23,1  23,1  23,1  0,000  0,0  0,00  0,00  0,00000000  0,00000000  
683  25.11.2023 14:13:40.342  207,10  -0,279644  -0,398883  -0,458652  -0,337833  0,230658  9,730285  29,68  0  0,00  0,000  0,000  0,000  0,00  0,00  0,00000000  0,00000000  0  0  16  0  23,1  23,1  23,1  0,000  0,0  0,00  0,00  0,00000000  0,00000000  
684  25.11.2023 14:13:40.388  207,12  -0,241669  -0,397263  -0,526597  -0,315850  0,216208  9,735999  29,67  0  0,00  0,000  0,000  0,000  0,00  0,00  0,00000000  0,00000000  0  0  16  0  23,1  23,1  23,1  0,000  0,0  0,00  0,00  0,00000000  0,00000000  
685  25.11.2023 14:13:40.388  207,14  -0,196823  -0,351699  -0,488060  -0,323031  0,215103  9,705480  29,67  0  0,00  0,000  0,000  0,000  0,00  0,00  0,00000000  0,00000000  0  0  16  0  23,1  23,1  23,1  0,000  0,0  0,00  0,00  0,00000000  0,00000000  
686  25.11.2023 14:13:40.403  207,16  -0,249949  -0,359793  -0,488015  -0,321608  0,233536  9,733210  29,67  0  0,00  0,000  0,000  0,000  0,00  0,00  0,00000000  0,00000000  0  0  16  0  23,1  23,1  23,1  0,000  0,0  0,00  0,00  0,00000000  0,00000000  
687  25.11.2023 14:13:40.403  207,18  -0,182045  -0,366182  -0,517749  -0,331889  0,212902  9,711040  29,67  0  0,00  0,000  0,000  0,000  0,00  0,00  0,00000000  0,00000000  0  0  16  0  23,1  23,1  23,1  0,000  0,0  0,00  0,00  0,00000000  0,00000000  
688  25.11.2023 14:13:40.403  207,20  -0,226844  -0,412471  -0,518635  -0,327022  0,222971  9,708977  29,67  0  0,00  0,000  0,000  0,000  0,00  0,00  0,00000000  0,00000000  0  0  16  0  23,1  23,1  23,1  0,000  0,0  0,00  0,00  0,00000000  0,00000000  
689  25.11.2023 14:13:40.418  207,22  -0,317411  -0,421555  -0,489016  -0,333740  0,213099  9,720294  29,69  0  0,00  0,000  0,000  0,000  0,00  0,00  0,00000000  0,00000000  0  0  16  0  23,1  23,1  23,1  0,000  0,0  0,00  0,00  0,00000000  0,00000000  
690  25.11.2023 14:13:40.449  207,24  -0,256706  -0,443475  -0,511689  -0,337713  0,233500  9,722898  29,69  0  0,00  0,000  0,000  0,000  0,00  0,00  0,00000000  0,00000000  0  0  16  0  23,1  23,1  23,1  0,000  0,0  0,00  0,00  0,00000000  0,00000000  
691  25.11.2023 14:13:40.465  207,26  -0,287028  -0,421294  -0,489074  -0,319966  0,219014  9,724355  29,69  0  0,00  0,000  0,000  0,000  0,00  0,00  0,00000000  0,00000000  0  0  16  0  23,1  23,1  23,1  0,000  0,0  0,00  0,00  0,00000000  0,00000000  
692  25.11.2023 14:13:40.481  207,28  -0,257360  -0,344489  -0,495767  -0,341496  0,224692  9,728765  29,69  0  0,00  0,000  0,000  0,000  0,00  0,00  0,00000000  0,00000000  0  0  16  0  23,1  23,1  23,1  0,000  0,0  0,00  0,00  0,00000000  0,00000000  
693  25.11.2023 14:13:40.497  207,30  -0,181398  -0,398668  -0,420516  -0,319913  0,229769  9,724380  29,69  0  0,00  0,000  0,000  0,000  0,00  0,00  0,00000000  0,00000000  0  0  16  0  23,1  23,1  23,1  0,000  0,0  0,00  0,00  0,00000000  0,00000000  
694  25.11.2023 14:13:40.512  207,32  -0,196658  -0,390011  -0,480735  -0,337859  0,223198  9,715062  29,67  0  0,00  0,000  0,000  0,000  0,00  0,00  0,00000000  0,00000000  0  0  16  0  23,1  23,1  23,1  0,000  0,0  0,00  0,00  0,00000000  0,00000000  
695  25.11.2023 14:13:40.558  207,34  -0,211809  -0,389861  -0,495838  -0,319932  0,220059  9,716584  29,67  0  0,00  0,000  0,000  0,000  0,00  0,00  0,00000000  0,00000000  0  0  16  0  23,1  23,1  23,1  0,000  0,0  0,00  0,00  0,00000000  0,00000000  
696  25.11.2023 14:13:40.574  207,36  -0,241696  -0,397977  -0,488856  -0,325936  0,223381  9,699426  29,67  0  0,00  0,000  0,000  0,000  0,00  0,00  0,00000000  0,00000000  0  0  16  0  23,1  23,1  23,1  0,000  0,0  0,00  0,00  0,00000000  0,00000000  
697  25.11.2023 14:13:40.621  207,38  -0,234146  -0,413878  -0,451108  -0,326459  0,232481  9,737897  29,67  0  0,00  0,000  0,000  0,000  0,00  0,00  0,00000000  0,00000000  0  0  16  0  23,1  23,1  23,1  0,000  0,0  0,00  0,00  0,00000000  0,00000000  
698  25.11.2023 14:13:40.637  207,40  -0,272325  -0,422518  -0,413080  -0,322345  0,214799  9,721492  29,67  0  0,00  0,000  0,000  0,000  0,00  0,00  0,00000000  0,00000000  0  0  16  0  23,1  23,1  23,1  0,000  0,0  0,00  0,00  0,00000000  0,00000000  
699  25.11.2023 14:13:40.637  207,42  -0,218575  -0,497718  -0,451632  -0,333046  0,218937  9,713570  29,69  0  0,00  0,000  0,000  0,000  0,00  0,00  0,00000000  0,00000000  0  0  16  0  23,1  23,1  23,1  0,000  0,0  0,00  0,00  0,00000000  0,00000000  
700  25.11.2023 14:13:40.652  207,44  -0,295266  -0,361521  -0,420370  -0,324872  0,210115  9,725004  29,69  0  0,00  0,000  0,000  0,000  0,00  0,00  0,00000000  0,00000000  0  0  16  0  23,1  23,1  23,1  0,000  0,0  0,00  0,00  0,00000000  0,00000000  
701  25.11.2023 14:13:40.683  207,46  -0,324381  -0,429353  -0,489778  -0,328400  0,220693  9,713828  29,69  0  0,00  0,000  0,000  0,000  0,00  0,00  0,00000000  0,00000000  0  0  16  0  23,1  23,1  23,1  0,000  0,0  0,00  0,00  0,00000000  0,00000000  
702  25.11.2023 14:13:40.762  207,48  -0,302519  -0,407124  -0,435876  -0,324774  0,214127  9,716223  29,69  0  0,00  0,000  0,000  0,000  0,00  0,00  0,00000000  0,00000000  0  0  16  0  23,1  23,1  23,1  0,000  0,0  0,00  0,00  0,00000000  0,00000000  
703  25.11.2023 14:13:40.777  207,50  -0,279626  -0,390540  -0,496381  -0,319366  0,223345  9,732454  29,69  0  0,00  0,000  0,000  0,000  0,00  0,00  0,00000000  0,00000000  0  0  16  0  23,1  23,1  23,1  0,000  0,0  0,00  0,00  0,00000000  0,00000000  
704  25.11.2023 14:13:40.792  207,52  -0,226882  -0,390730  -0,458247  -0,322974  0,217529  9,707486  29,67  0  0,00  0,000  0,000  0,000  0,00  0,00  0,00000000  0,00000000  0  0  16  0  23,1  23,1  23,1  0,000  0,0  0,00  0,00  0,00000000  0,00000000  
705  25.11.2023 14:13:40.808  207,54  -0,241927  -0,397508  -0,511195  -0,321138  0,220394  9,733515  29,67  0  0,00  0,000  0,000  0,000  0,00  0,00  0,00000000  0,00000000  0  0  16  0  23,1  23,1  23,1  0,000  0,0  0,00  0,00  0,00000000  0,00000000  
706  25.11.2023 14:13:40.808  207,56  -0,173719  -0,404378  -0,518680  -0,323515  0,222510  9,717858  29,67  0  0,00  0,000  0,000  0,000  0,00  0,00  0,00000000  0,00000000  0  0  16  0  23,1  23,1  23,1  0,000  0,0  0,00  0,00  0,00000000  0,00000000  
707  25.11.2023 14:13:40.824  207,58  -0,204071  -0,358302  -0,548814  -0,320643  0,216216  9,702412  29,67  0  0,00  0,000  0,000  0,000  0,00  0,00  0,00000000  0,00000000  0  0  16  0  23,1  23,1  23,1  0,000  0,0  0,00  0,00  0,00000000  0,00000000  
708  25.11.2023 14:13:40.824  207,60  -0,203851  -0,404968  -0,503849  -0,331916  0,223220  9,719270  29,67  0  0,00  0,000  0,000  0,000  0,00  0,00  0,00000000  0,00000000  0  0  16  0  23,1  23,1  23,1  0,000  0,0  0,00  0,00  0,00000000  0,00000000  
709  25.11.2023 14:13:40.854  207,62  -0,174571  -0,337020  -0,442187  -0,320505  0,225226  9,705169  29,67  0  0,00  0,000  0,000  0,000  0,00  0,00  0,00000000  0,00000000  0  0  16  0  23,1  23,1  23,1  0,000  0,0  0,00  0,00  0,00000000  0,00000000  
710  25.11.2023 14:13:40.855  207,64  -0,219369  -0,391512  -0,412909  -0,314636  0,219530  9,754279  29,67  0  0,00  0,000  0,000  0,000  0,00  0,00  0,00000000  0,00000000  0  0  16  0  23,1  23,1  23,1  0,000  0,0  0,00  0,00  0,00000000  0,00000000  
711  25.11.2023 14:13:40.855  207,66  -0,271777  -0,422321  -0,428843  -0,319359  0,226719  9,721333  29,67  0  0,00  0,000  0,000  0,000  0,00  0,00  0,00000000  0,00000000  0  0  16  0  23,1  23,1  23,1  0,000  0,0  0,00  0,00  0,00000000  0,00000000  
712  25.11.2023 14:13:40.870  207,68  -0,211483  -0,405028  -0,503789  -0,308654  0,216812  9,740201  29,67  0  0,00  0,000  0,000  0,000  0,00  0,00  0,00000000  0,00000000  0  0  16  0  23,1  23,1  23,1  0,000  0,0  0,00  0,00  0,00000000  0,00000000  
713  25.11.2023 14:13:40.901  207,70  -0,233884  -0,404857  -0,526849  -0,337402  0,216103  9,719042  29,67  0  0,00  0,000  0,000  0,000  0,00  0,00  0,00000000  0,00000000  0  0  16  0  23,1  23,1  23,1  0,000  0,0  0,00  0,00  0,00000000  0,00000000  
714  25.11.2023 14:13:40.932  207,72  -0,317322  -0,368174  -0,489110  -0,323645  0,223576  9,742196  29,67  0  0,00  0,000  0,000  0,000  0,00  0,00  0,00000000  0,00000000  0  0  16  0  23,1  23,1  23,1  0,000  0,0  0,00  0,00  0,00000000  0,00000000  
715  25.11.2023 14:13:40.932  207,74  -0,264867  -0,374938  -0,503413  -0,331937  0,216912  9,733215  29,67  0  0,00  0,000  0,000  0,000  0,00  0,00  0,00000000  0,00000000  0  0  16  0  23,1  23,1  23,1  0,000  0,0  0,00  0,00  0,00000000  0,00000000  
716  25.11.2023 14:13:40.963  207,76  -0,241533  -0,421462  -0,458897  -0,315749  0,226528  9,713254  29,67  0  0,00  0,000  0,000  0,000  0,00  0,00  0,00000000  0,00000000  0  0  16  0  23,1  23,1  23,1  0,000  0,0  0,00  0,00  0,00000000  0,00000000  
717  25.11.2023 14:13:40.978  207,78  -0,310413  -0,354175  -0,412852  -0,310966  0,227268  9,723225  29,67  0  0,00  0,000  0,000  0,000  0,00  0,00  0,00000000  0,00000000  0  0  16  0  23,1  23,1  23,1  0,000  0,0  0,00  0,00  0,00000000  0,00000000  
718  25.11.2023 14:13:40.994  207,80  -0,227479  -0,343570  -0,525371  -0,327052  0,223372  9,730012  29,67  0  0,00  0,000  0,000  0,000  0,00  0,00  0,00000000  0,00000000  0  0  16  0  23,1  23,1  23,1  0,000  0,0  0,00  0,00  0,00000000  0,00000000  
719  25.11.2023 14:13:41.9  207,82  -0,242170  -0,367960  -0,458091  -0,330776  0,217926  9,724230  29,69  0  0,00  0,000  0,000  0,000  0,00  0,00  0,00000000  0,00000000  0  0  16  0  23,1  23,1  23,1  0,000  0,0  0,00  0,00  0,00000000  0,00000000  
720  25.11.2023 14:13:41.89  207,84  -0,265136  -0,352727  -0,465364  -0,316357  0,222235  9,738602  29,69  0  0,00  0,000  0,000  0,000  0,00  0,00  0,00000000  0,00000000  0  0  16  0  23,1  23,1  23,1  0,000  0,0  0,00  0,00  0,00000000  0,00000000  
721  25.11.2023 14:13:41.89  207,86  -0,301921  -0,460907  -0,421549  -0,329352  0,237568  9,721232  29,69  0  0,00  0,000  0,000  0,000  0,00  0,00  0,00000000  0,00000000  0  0  16  0  23,1  23,1  23,1  0,000  0,0  0,00  0,00  0,00000000  0,00000000  
722  25.11.2023 14:13:41.105  207,88  -0,219207  -0,405215  -0,496073  -0,315666  0,228425  9,718898  29,69  0  0,00  0,000  0,000  0,000  0,00  0,00  0,00000000  0,00000000  0  0  16  0  23,1  23,1  23,1  0,000  0,0  0,00  0,00  0,00000000  0,00000000  
723  25.11.2023 14:13:41.105  207,90  -0,218018  -0,443122  -0,520183  -0,326748  0,213620  9,719592  29,69  0  0,00  0,000  0,000  0,000  0,00  0,00  0,00000000  0,00000000  0  0  16  0  23,1  23,1  23,1  0,000  0,0  0,00  0,00  0,00000000  0,00000000  
724  25.11.2023 14:13:41.136  207,92  -0,264089  -0,405436  -0,511928  -0,329092  0,211943  9,724564  29,65  0  0,00  0,000  0,000  0,000  0,00  0,00  0,00000000  0,00000000  0  0  16  0  23,1  23,1  23,1  0,000  0,0  0,00  0,00  0,00000000  0,00000000  
725  25.11.2023 14:13:41.136  207,94  -0,233797  -0,413505  -0,474167  -0,327890  0,213552  9,715524  29,65  0  0,00  0,000  0,000  0,000  0,00  0,00  0,00000000  0,00000000  0  0  16  0  23,1  23,1  23,1  0,000  0,0  0,00  0,00  0,00000000  0,00000000  
726  25.11.2023 14:13:41.151  207,96  -0,263825  -0,436422  -0,489638  -0,327239  0,217108  9,714416  29,65  0  0,00  0,000  0,000  0,000  0,00  0,00  0,00000000  0,00000000  0  0  16  0  23,1  23,1  23,1  0,000  0,0  0,00  0,00  0,00000000  0,00000000  
727  25.11.2023 14:13:41.167  207,98  -0,226718  -0,420838  -0,481085  -0,330624  0,225467  9,712571  29,65  0  0,00  0,000  0,000  0,000  0,00  0,00  0,00000000  0,00000000  0  0  16  0  23,1  23,1  23,1  0,000  0,0  0,00  0,00  0,00000000  0,00000000  
728  25.11.2023 14:13:41.183  208,00  -0,188902  -0,381913  -0,503571  -0,327136  0,223537  9,706998  29,65  0  0,00  0,000  0,000  0,000  0,00  0,00  0,00000000  0,00000000  0  0  16  0  23,1  23,1  23,1  0,000  0,0  0,00  0,00  0,00000000  0,00000000  
729  25.11.2023 14:13:41.213  208,02  -0,249929  -0,361232  -0,412621  -0,313999  0,219859  9,709076  29,67  0  0,00  0,000  0,000  0,000  0,00  0,00  0,00000000  0,00000000  0  0  16  0  23,1  23,1  23,1  0,000  0,0  0,00  0,00  0,00000000  0,00000000  
730  25.11.2023 14:13:41.260  208,04  -0,264330  -0,420939  -0,496550  -0,327154  0,217128  9,715679  29,67  0  0,00  0,000  0,000  0,000  0,00  0,00  0,00000000  0,00000000  0  0  16  0  23,1  23,1  23,1  0,000  0,0  0,00  0,00  0,00000000  0,00000000  
731  25.11.2023 14:13:41.291  208,06  -0,287267  -0,344543  -0,511381  -0,322489  0,217826  9,723178  29,67  0  0,00  0,000  0,000  0,000  0,00  0,00  0,00000000  0,00000000  0  0  16  0  23,1  23,1  23,1  0,000  0,0  0,00  0,00  0,00000000  0,00000000  
732  25.11.2023 14:13:41.291  208,08  -0,309842  -0,398888  -0,473906  -0,329548  0,220030  9,709852  29,67  0  0,00  0,000  0,000  0,000  0,00  0,00  0,00000000  0,00000000  0  0  16  0  23,1  23,1  23,1  0,000  0,0  0,00  0,00  0,00000000  0,00000000  
733  25.11.2023 14:13:41.307  208,10  -0,219073  -0,382784  -0,473607  -0,317606  0,225082  9,730410  29,67  0  0,00  0,000  0,000  0,000  0,00  0,00  0,00000000  0,00000000  0  0  16  0  23,1  23,1  23,1  0,000  0,0  0,00  0,00  0,00000000  0,00000000  
734  25.11.2023 14:13:41.322  208,12  -0,271567  -0,413149  -0,512060  -0,325847  0,236663  9,706701  29,67  0  0,00  0,000  0,000  0,000  0,00  0,00  0,00000000  0,00000000  0  0  16  0  23,1  23,1  23,1  0,000  0,0  0,00  0,00  0,00000000  0,00000000  
735  25.11.2023 14:13:41.337  208,14  -0,211834  -0,398777  -0,427933  -0,320543  0,221491  9,728647  29,67  0  0,00  0,000  0,000  0,000  0,00  0,00  0,00000000  0,00000000  0  0  16  0  23,1  23,1  23,1  0,000  0,0  0,00  0,00  0,00000000  0,00000000  
736  25.11.2023 14:13:41.353  208,16  -0,256205  -0,474357  -0,497235  -0,323097  0,206351  9,747962  29,67  0  0,00  0,000  0,000  0,000  0,00  0,00  0,00000000  0,00000000  0  0  16  0  23,1  23,1  23,1  0,000  0,0  0,00  0,00  0,00000000  0,00000000  
737  25.11.2023 14:13:41.368  208,18  -0,308827  -0,459507  -0,505349  -0,318782  0,227043  9,707180  29,67  0  0,00  0,000  0,000  0,000  0,00  0,00  0,00000000  0,00000000  0  0  16  0  23,1  23,1  23,1  0,000  0,0  0,00  0,00  0,00000000  0,00000000  
738  25.11.2023 14:13:41.399  208,20  -0,242721  -0,353331  -0,419695  -0,324078  0,223300  9,727730  29,67  0  0,00  0,000  0,000  0,000  0,00  0,00  0,00000000  0,00000000  0  0  16  0  23,1  23,1  23,1  0,000  0,0  0,00  0,00  0,00000000  0,00000000  
739  25.11.2023 14:13:41.478  208,22  -0,226062  -0,465997  -0,519620  -0,324667  0,226362  9,731325  29,69  0  0,00  0,000  0,000  0,000  0,00  0,00  0,00000000  0,00000000  0  0  16  0  23,1  23,1  23,1  0,000  0,0  0,00  0,00  0,00000000  0,00000000  
740  25.11.2023 14:13:41.478  208,24  -0,241752  -0,413223  -0,488790  -0,334869  0,222374  9,704704  29,69  0  0,00  0,000  0,000  0,000  0,00  0,00  0,00000000  0,00000000  0  0  16  0  23,1  23,1  23,1  0,000  0,0  0,00  0,00  0,00000000  0,00000000  
741  25.11.2023 14:13:41.478  208,26  -0,256414  -0,451726  -0,481885  -0,318081  0,230413  9,727880  29,69  0  0,00  0,000  0,000  0,000  0,00  0,00  0,00000000  0,00000000  0  0  16  0  23,1  23,1  23,1  0,000  0,0  0,00  0,00  0,00000000  0,00000000  
742  25.11.2023 14:13:41.478  208,28  -0,204177  -0,389802  -0,495898  -0,328943  0,219333  9,736410  29,69  0  0,00  0,000  0,000  0,000  0,00  0,00  0,00000000  0,00000000  0  0  16  0  23,1  23,1  23,1  0,000  0,0  0,00  0,00  0,00000000  0,00000000  
743  25.11.2023 14:13:41.494  208,30  -0,332392  -0,383868  -0,474152  -0,328379  0,224156  9,707402  29,69  0  0,00  0,000  0,000  0,000  0,00  0,00  0,00000000  0,00000000  0  0  16  0  23,1  23,1  23,1  0,000  0,0  0,00  0,00  0,00000000  0,00000000  
744  25.11.2023 14:13:41.509  208,32  -0,234143  -0,398479  -0,458650  -0,330814  0,216502  9,712096  29,66  0  0,00  0,000  0,000  0,000  0,00  0,00  0,00000000  0,00000000  0  0  16  0  23,1  23,1  23,1  0,000  0,0  0,00  0,00  0,00000000  0,00000000  
745  25.11.2023 14:13:41.541  208,34  -0,234187  -0,405956  -0,466138  -0,318835  0,215296  9,717886  29,66  0  0,00  0,000  0,000  0,000  0,00  0,00  0,00000000  0,00000000  0  0  16  0  23,1  23,1  23,1  0,000  0,0  0,00  0,00  0,00000000  0,00000000  
746  25.11.2023 14:13:41.557  208,36  -0,249243  -0,391858  -0,413480  -0,328367  0,227942  9,717937  29,66  0  0,00  0,000  0,000  0,000  0,00  0,00  0,00000000  0,00000000  0  0  16  0  23,1  23,1  23,1  0,000  0,0  0,00  0,00  0,00000000  0,00000000  
747  25.11.2023 14:13:41.572  208,38  -0,234020  -0,420665  -0,496518  -0,326540  0,219990  9,709362  29,66  0  0,00  0,000  0,000  0,000  0,00  0,00  0,00000000  0,00000000  0  0  16  0  23,1  23,1  23,1  0,000  0,0  0,00  0,00  0,00000000  0,00000000  
748  25.11.2023 14:13:41.588  208,40  -0,233992  -0,428154  -0,504097  -0,325874  0,226173  9,720750  29,66  0  0,00  0,000  0,000  0,000  0,00  0,00  0,00000000  0,00000000  0  0  16  0  23,1  23,1  23,1  0,000  0,0  0,00  0,00  0,00000000  0,00000000  
749  25.11.2023 14:13:41.603  208,42  -0,210979  -0,450736  -0,511969  -0,330117  0,220464  9,700991  29,68  0  0,00  0,000  0,000  0,000  0,00  0,00  0,00000000  0,00000000  0  0  16  0  23,1  23,1  23,1  0,000  0,0  0,00  0,00  0,00000000  0,00000000  
750  25.11.2023 14:13:41.634  208,44  -0,196130  -0,388375  -0,571891  -0,330963  0,200894  9,708079  29,68  0  0,00  0,000  0,000  0,000  0,00  0,00  0,00000000  0,00000000  0  0  16  0  23,1  23,1  23,1  0,000  0,0  0,00  0,00  0,00000000  0,00000000  
751  25.11.2023 14:13:41.650  208,46  -0,248876  -0,443592  -0,504452  -0,333159  0,219796  9,758509  29,68  0  0,00  0,000  0,000  0,000  0,00  0,00  0,00000000  0,00000000  0  0  16  0  23,1  23,1  23,1  0,000  0,0  0,00  0,00  0,00000000  0,00000000  
752  25.11.2023 14:13:41.681  208,48  -0,309284  -0,421147  -0,512314  -0,326438  0,236446  9,694989  29,68  0  0,00  0,000  0,000  0,000  0,00  0,00  0,00000000  0,00000000  0  0  16  0  23,1  23,1  23,1  0,000  0,0  0,00  0,00  0,00000000  0,00000000  
753  25.11.2023 14:13:41.681  208,50  -0,256881  -0,399114  -0,436042  -0,318126  0,230977  9,725975  29,68  0  0,00  0,000  0,000  0,000  0,00  0,00  0,00000000  0,00000000  0  0  16  0  23,1  23,1  23,1  0,000  0,0  0,00  0,00  0,00000000  0,00000000  
754  25.11.2023 14:13:41.713  208,52  -0,241747  -0,406027  -0,466169  -0,323592  0,219171  9,730659  29,67  0  0,00  0,000  0,000  0,000  0,00  0,00  0,00000000  0,00000000  0  0  16  0  23,1  23,1  23,1  0,000  0,0  0,00  0,00  0,00000000  0,00000000  
755  25.11.2023 14:13:41.728  208,54  -0,219385  -0,406478  -0,427976  -0,322866  0,225337  9,709825  29,67  0  0,00  0,000  0,000  0,000  0,00  0,00  0,00000000  0,00000000  0  0  16  0  23,1  23,1  23,1  0,000  0,0  0,00  0,00  0,00000000  0,00000000  
756  25.11.2023 14:13:41.775  208,56  -0,302435  -0,399366  -0,443520  -0,323611  0,213309  9,705197  29,67  0  0,00  0,000  0,000  0,000  0,00  0,00  0,00000000  0,00000000  0  0  16  0  23,1  23,1  23,1  0,000  0,0  0,00  0,00  0,00000000  0,00000000  
757  25.11.2023 14:13:41.820  208,58  -0,249153  -0,381947  -0,534259  -0,317003  0,223363  9,703124  29,67  0  0,00  0,000  0,000  0,000  0,00  0,00  0,00000000  0,00000000  0  0  16  0  23,1  23,1  23,1  0,000  0,0  0,00  0,00  0,00000000  0,00000000  
758  25.11.2023 14:13:41.836  208,60  -0,278809  -0,452562  -0,452161  -0,323714  0,212276  9,713476  29,67  0  0,00  0,000  0,000  0,000  0,00  0,00  0,00000000  0,00000000  0  0  16  0  23,1  23,1  23,1  0,000  0,0  0,00  0,00  0,00000000  0,00000000  
759  25.11.2023 14:13:41.836  208,62  -0,294826  -0,384622  -0,413380  -0,328936  0,227329  9,716885  29,66  0  0,00  0,000  0,000  0,000  0,00  0,00  0,00000000  0,00000000  0  0  16  0  23,1  23,1  23,1  0,000  0,0  0,00  0,00  0,00000000  0,00000000  
760  25.11.2023 14:13:41.836  208,64  -0,263805  -0,436282  -0,497204  -0,337936  0,224470  9,718877  29,66  0  0,00  0,000  0,000  0,000  0,00  0,00  0,00000000  0,00000000  0  0  16  0  23,1  23,1  23,1  0,000  0,0  0,00  0,00  0,00000000  0,00000000  
761  25.11.2023 14:13:41.852  208,66  -0,204139  -0,382898  -0,458234  -0,325919  0,225963  9,709580  29,66  0  0,00  0,000  0,000  0,000  0,00  0,00  0,00000000  0,00000000  0  0  16  0  23,1  23,1  23,1  0,000  0,0  0,00  0,00  0,00000000  0,00000000  
762  25.11.2023 14:13:41.898  208,68  -0,279328  -0,430022  -0,428885  -0,328483  0,209554  9,724988  29,66  0  0,00  0,000  0,000  0,000  0,00  0,00  0,00000000  0,00000000  0  0  16  0  23,1  23,1  23,1  0,000  0,0  0,00  0,00  0,00000000  0,00000000  
763  25.11.2023 14:13:41.913  208,70  -0,272441  -0,367953  -0,473255  -0,323525  0,223073  9,715991  29,66  0  0,00  0,000  0,000  0,000  0,00  0,00  0,00000000  0,00000000  0  0  16  0  23,1  23,1  23,1  0,000  0,0  0,00  0,00  0,00000000  0,00000000  
764  25.11.2023 14:13:41.913  208,72  -0,248660  -0,435425  -0,534885  -0,333143  0,223895  9,722618  29,68  0  0,00  0,000  0,000  0,000  0,00  0,00  0,00000000  0,00000000  0  0  16  0  23,1  23,1  23,1  0,000  0,0  0,00  0,00  0,00000000  0,00000000  
765  25.11.2023 14:13:41.928  208,74  -0,310027  -0,367341  -0,526461  -0,334853  0,229360  9,726453  29,68  0  0,00  0,000  0,000  0,000  0,00  0,00  0,00000000  0,00000000  0  0  16  0  23,1  23,1  23,1  0,000  0,0  0,00  0,00  0,00000000  0,00000000  
766  25.11.2023 14:13:41.959  208,76  -0,211619  -0,382408  -0,488530  -0,319933  0,228071  9,729338  29,68  0  0,00  0,000  0,000  0,000  0,00  0,00  0,00000000  0,00000000  0  0  16  0  23,1  23,1  23,1  0,000  0,0  0,00  0,00  0,00000000  0,00000000  
767  25.11.2023 14:13:41.974  208,78  -0,249233  -0,374306  -0,534157  -0,335560  0,222593  9,715707  29,68  0  0,00  0,000  0,000  0,000  0,00  0,00  0,00000000  0,00000000  0  0  16  0  23,1  23,1  23,1  0,000  0,0  0,00  0,00  0,00000000  0,00000000  
768  25.11.2023 14:13:42.22  208,80  -0,294978  -0,345163  -0,481056  -0,328318  0,230830  9,712814  29,68  0  0,00  0,000  0,000  0,000  0,00  0,00  0,00000000  0,00000000  0  0  16  0  23,1  23,1  23,1  0,000  0,0  0,00  0,00  0,00000000  0,00000000  
769  25.11.2023 14:13:42.22  208,82  -0,234899  -0,345819  -0,412446  -0,337988  0,214717  9,708704  29,66  0  0,00  0,000  0,000  0,000  0,00  0,00  0,00000000  0,00000000  0  0  16  0  23,1  23,1  23,1  0,000  0,0  0,00  0,00  0,00000000  0,00000000  
770  25.11.2023 14:13:42.38  208,84  -0,263990  -0,406314  -0,466799  -0,326661  0,220004  9,709816  29,66  0  0,00  0,000  0,000  0,000  0,00  0,00  0,00000000  0,00000000  0  0  16  0  23,1  23,1  23,1  0,000  0,0  0,00  0,00  0,00000000  0,00000000  
771  25.11.2023 14:13:42.53  208,86  -0,286736  -0,427965  -0,542231  -0,329460  0,228746  9,728455  29,66  0  0,00  0,000  0,000  0,000  0,00  0,00  0,00000000  0,00000000  0  0  16  0  23,1  23,1  23,1  0,000  0,0  0,00  0,00  0,00000000  0,00000000  
772  25.11.2023 14:13:42.85  208,88  -0,256547  -0,413707  -0,474168  -0,330891  0,211365  9,724611  29,66  0  0,00  0,000  0,000  0,000  0,00  0,00  0,00000000  0,00000000  0  0  16  0  23,1  23,1  23,1  0,000  0,0  0,00  0,00  0,00000000  0,00000000  
773  25.11.2023 14:13:42.101  208,90  -0,295052  -0,375376  -0,496058  -0,330122  0,219584  9,717571  29,66  0  0,00  0,000  0,000  0,000  0,00  0,00  0,00000000  0,00000000  0  0  16  0  23,1  23,1  23,1  0,000  0,0  0,00  0,00  0,00000000  0,00000000  
774  25.11.2023 14:13:42.116  208,92  -0,308722  -0,459811  -0,490396  -0,330164  0,228266  9,702577  29,68  0  0,00  0,000  0,000  0,000  0,00  0,00  0,00000000  0,00000000  0  0  16  0  23,1  23,1  23,1  0,000  0,0  0,00  0,00  0,00000000  0,00000000  
775  25.11.2023 14:13:42.179  208,94  -0,286776  -0,391398  -0,459210  -0,315215  0,230717  9,713675  29,68  0  0,00  0,000  0,000  0,000  0,00  0,00  0,00000000  0,00000000  0  0  16  0  23,1  23,1  23,1  0,000  0,0  0,00  0,00  0,00000000  0,00000000  
776  25.11.2023 14:13:42.195  208,96  -0,242017  -0,375614  -0,458283  -0,335520  0,223221  9,717406  29,68  0  0,00  0,000  0,000  0,000  0,00  0,00  0,00000000  0,00000000  0  0  16  0  23,1  23,1  23,1  0,000  0,0  0,00  0,00  0,00000000  0,00000000  
777  25.11.2023 14:13:42.210  208,98  -0,241653  -0,412522  -0,526622  -0,322226  0,232062  9,718156  29,68  0  0,00  0,000  0,000  0,000  0,00  0,00  0,00000000  0,00000000  0  0  16  0  23,1  23,1  23,1  0,000  0,0  0,00  0,00  0,00000000  0,00000000  
778  25.11.2023 14:13:42.210  209,00  -0,249604  -0,366616  -0,533695  -0,325987  0,216722  9,726311  29,68  0  0,00  0,000  0,000  0,000  0,00  0,00  0,00000000  0,00000000  0  0  16  0  23,1  23,1  23,1  0,000  0,0  0,00  0,00  0,00000000  0,00000000  
779  25.11.2023 14:13:42.225  209,02  -0,128804  -0,374225  -0,472691  -0,321696  0,226400  9,734891  29,68  0  0,00  0,000  0,000  0,000  0,00  0,00  0,00000000  0,00000000  0  0  16  0  23,1  23,1  23,1  0,000  0,0  0,00  0,00  0,00000000  0,00000000  
780  25.11.2023 14:13:42.225  209,04  -0,249085  -0,389156  -0,556971  -0,322950  0,226853  9,726504  29,68  0  0,00  0,000  0,000  0,000  0,00  0,00  0,00000000  0,00000000  0  0  16  0  23,1  23,1  23,1  0,000  0,0  0,00  0,00  0,00000000  0,00000000  
781  25.11.2023 14:13:42.256  209,06  -0,219128  -0,406234  -0,443379  -0,314651  0,214538  9,711652  29,68  0  0,00  0,000  0,000  0,000  0,00  0,00  0,00000000  0,00000000  0  0  16  0  23,1  23,1  23,1  0,000  0,0  0,00  0,00  0,00000000  0,00000000  
782  25.11.2023 14:13:42.287  209,08  -0,188726  -0,404252  -0,533964  -0,328350  0,218949  9,716520  29,68  0  0,00  0,000  0,000  0,000  0,00  0,00  0,00000000  0,00000000  0  0  16  0  23,1  23,1  23,1  0,000  0,0  0,00  0,00  0,00000000  0,00000000  
783  25.11.2023 14:13:42.287  209,10  -0,234149  -0,367247  -0,496342  -0,334364  0,226190  9,716896  29,68  0  0,00  0,000  0,000  0,000  0,00  0,00  0,00000000  0,00000000  0  0  16  0  23,1  23,1  23,1  0,000  0,0  0,00  0,00  0,00000000  0,00000000  
784  25.11.2023 14:13:42.318  209,12  -0,234449  -0,383172  -0,458265  -0,323623  0,214679  9,714349  29,66  0  0,00  0,000  0,000  0,000  0,00  0,00  0,00000000  0,00000000  0  0  16  0  23,1  23,1  23,1  0,000  0,0  0,00  0,00  0,00000000  0,00000000  
785  25.11.2023 14:13:42.318  209,14  -0,256343  -0,413310  -0,497047  -0,329673  0,216581  9,716749  29,66  0  0,00  0,000  0,000  0,000  0,00  0,00  0,00000000  0,00000000  0  0  16  0  23,1  23,1  23,1  0,000  0,0  0,00  0,00  0,00000000  0,00000000  
786  25.11.2023 14:13:42.350  209,16  -0,256859  -0,404017  -0,579365  -0,329484  0,218637  9,699587  29,66  0  0,00  0,000  0,000  0,000  0,00  0,00  0,00000000  0,00000000  0  0  16  0  23,1  23,1  23,1  0,000  0,0  0,00  0,00  0,00000000  0,00000000  
787  25.11.2023 14:13:42.365  209,18  -0,294427  -0,430025  -0,436512  -0,330159  0,221472  9,722499  29,66  0  0,00  0,000  0,000  0,000  0,00  0,00  0,00000000  0,00000000  0  0  16  0  23,1  23,1  23,1  0,000  0,0  0,00  0,00  0,00000000  0,00000000  
788  25.11.2023 14:13:42.381  209,20  -0,256981  -0,390033  -0,511333  -0,334887  0,224762  9,735988  29,66  0  0,00  0,000  0,000  0,000  0,00  0,00  0,00000000  0,00000000  0  0  16  0  23,1  23,1  23,1  0,000  0,0  0,00  0,00  0,00000000  0,00000000  
789  25.11.2023 14:13:42.428  209,22  -0,355390  -0,368343  -0,496468  -0,334263  0,229077  9,711828  29,68  0  0,00  0,000  0,000  0,000  0,00  0,00  0,00000000  0,00000000  0  0  16  0  23,1  23,1  23,1  0,000  0,0  0,00  0,00  0,00000000  0,00000000  
790  25.11.2023 14:13:42.443  209,24  -0,279713  -0,383472  -0,466104  -0,330127  0,226704  9,746320  29,68  0  0,00  0,000  0,000  0,000  0,00  0,00  0,00000000  0,00000000  0  0  16  0  23,1  23,1  23,1  0,000  0,0  0,00  0,00  0,00000000  0,00000000  
791  25.11.2023 14:13:42.443  209,26  -0,294142  -0,437269  -0,459494  -0,329606  0,221005  9,729588  29,68  0  0,00  0,000  0,000  0,000  0,00  0,00  0,00000000  0,00000000  0  0  16  0  23,1  23,1  23,1  0,000  0,0  0,00  0,00  0,00000000  0,00000000  
792  25.11.2023 14:13:42.459  209,28  -0,302796  -0,375704  -0,480775  -0,315119  0,221989  9,726388  29,68  0  0,00  0,000  0,000  0,000  0,00  0,00  0,00000000  0,00000000  0  0  16  0  23,1  23,1  23,1  0,000  0,0  0,00  0,00  0,00000000  0,00000000  
793  25.11.2023 14:13:42.506  209,30  -0,195940  -0,412727  -0,496714  -0,332011  0,220906  9,723075  29,68  0  0,00  0,000  0,000  0,000  0,00  0,00  0,00000000  0,00000000  0  0  16  0  23,1  23,1  23,1  0,000  0,0  0,00  0,00  0,00000000  0,00000000  
794  25.11.2023 14:13:42.584  209,32  -0,248894  -0,389906  -0,519499  -0,326031  0,223672  9,714537  29,66  0  0,00  0,000  0,000  0,000  0,00  0,00  0,00000000  0,00000000  0  0  16  0  23,1  23,1  23,1  0,000  0,0  0,00  0,00  0,00000000  0,00000000  
795  25.11.2023 14:13:42.616  209,34  -0,242157  -0,336589  -0,503350  -0,327305  0,212944  9,746740  29,66  0  0,00  0,000  0,000  0,000  0,00  0,00  0,00000000  0,00000000  0  0  16  0  23,1  23,1  23,1  0,000  0,0  0,00  0,00  0,00000000  0,00000000  
796  25.11.2023 14:13:42.616  209,36  -0,271263  -0,452057  -0,474740  -0,314039  0,221041  9,708249  29,66  0  0,00  0,000  0,000  0,000  0,00  0,00  0,00000000  0,00000000  0  0  16  0  23,1  23,1  23,1  0,000  0,0  0,00  0,00  0,00000000  0,00000000  
797  25.11.2023 14:13:42.616  209,38  -0,301392  -0,467474  -0,482542  -0,333109  0,227490  9,723230  29,66  0  0,00  0,000  0,000  0,000  0,00  0,00  0,00000000  0,00000000  0  0  16  0  23,1  23,1  23,1  0,000  0,0  0,00  0,00  0,00000000  0,00000000  
798  25.11.2023 14:13:42.616  209,40  -0,279747  -0,383179  -0,481146  -0,318071  0,231138  9,703111  29,66  0  0,00  0,000  0,000  0,000  0,00  0,00  0,00000000  0,00000000  0  0  16  0  23,1  23,1  23,1  0,000  0,0  0,00  0,00  0,00000000  0,00000000  
799  25.11.2023 14:13:42.631  209,42  -0,249689  -0,375954  -0,443091  -0,341473  0,225298  9,729276  29,67  0  0,00  0,000  0,000  0,000  0,00  0,00  0,00000000  0,00000000  0  0  16  0  23,1  23,1  23,1  0,000  0,0  0,00  0,00  0,00000000  0,00000000  
800  25.11.2023 14:13:42.631  209,44  -0,165515  -0,427010  -0,534539  -0,329730  0,209327  9,743729  29,67  0  0,00  0,000  0,000  0,000  0,00  0,00  0,00000000  0,00000000  0  0  16  0  23,1  23,1  23,1  0,000  0,0  0,00  0,00  0,00000000  0,00000000  
801  25.11.2023 14:13:42.646  209,46  -0,271933  -0,398263  -0,488977  -0,334413  0,215061  9,728680  29,67  0  0,00  0,000  0,000  0,000  0,00  0,00  0,00000000  0,00000000  0  0  16  0  23,1  23,1  23,1  0,000  0,0  0,00  0,00  0,00000000  0,00000000  
802  25.11.2023 14:13:42.662  209,48  -0,241515  -0,374692  -0,511698  -0,320103  0,220542  9,741563  29,67  0  0,00  0,000  0,000  0,000  0,00  0,00  0,00000000  0,00000000  0  0  16  0  23,1  23,1  23,1  0,000  0,0  0,00  0,00  0,00000000  0,00000000  
803  25.11.2023 14:13:42.677  209,50  -0,227618  -0,306125  -0,487478  -0,327047  0,230628  9,702976  29,67  0  0,00  0,000  0,000  0,000  0,00  0,00  0,00000000  0,00000000  0  0  16  0  23,1  23,1  23,1  0,000  0,0  0,00  0,00  0,00000000  0,00000000  
804  25.11.2023 14:13:42.709  209,52  -0,196375  -0,350625  -0,548951  -0,320686  0,218282  9,716697  29,67  0  0,00  0,000  0,000  0,000  0,00  0,00  0,00000000  0,00000000  0  0  16  0  23,1  23,1  23,1  0,000  0,0  0,00  0,00  0,00000000  0,00000000  
805  25.11.2023 14:13:42.724  209,54  -0,256234  -0,396636  -0,572596  -0,322379  0,230974  9,723455  29,67  0  0,00  0,000  0,000  0,000  0,00  0,00  0,00000000  0,00000000  0  0  16  0  23,1  23,1  23,1  0,000  0,0  0,00  0,00  0,00000000  0,00000000  
806  25.11.2023 14:13:42.740  209,56  -0,241552  -0,391378  -0,436239  -0,325476  0,219542  9,717542  29,67  0  0,00  0,000  0,000  0,000  0,00  0,00  0,00000000  0,00000000  0  0  16  0  23,1  23,1  23,1  0,000  0,0  0,00  0,00  0,00000000  0,00000000  
807  25.11.2023 14:13:42.756  209,58  -0,271828  -0,398567  -0,474024  -0,322954  0,227967  9,722206  29,67  0  0,00  0,000  0,000  0,000  0,00  0,00  0,00000000  0,00000000  0  0  16  0  23,1  23,1  23,1  0,000  0,0  0,00  0,00  0,00000000  0,00000000  
808  25.11.2023 14:13:42.788  209,60  -0,234806  -0,382538  -0,487991  -0,316212  0,229214  9,728788  29,67  0  0,00  0,000  0,000  0,000  0,00  0,00  0,00000000  0,00000000  0  0  16  0  23,1  23,1  23,1  0,000  0,0  0,00  0,00  0,00000000  0,00000000  
809  25.11.2023 14:13:42.804  209,62  -0,241692  -0,382578  -0,496397  -0,327291  0,213262  9,732026  29,69  0  0,00  0,000  0,000  0,000  0,00  0,00  0,00000000  0,00000000  0  0  16  0  23,1  23,1  23,1  0,000  0,0  0,00  0,00  0,00000000  0,00000000  
810  25.11.2023 14:13:42.835  209,64  -0,293458  -0,491497  -0,422647  -0,336681  0,235798  9,718255  29,69  0  0,00  0,000  0,000  0,000  0,00  0,00  0,00000000  0,00000000  0  0  16  0  23,1  23,1  23,1  0,000  0,0  0,00  0,00  0,00000000  0,00000000  
811  25.11.2023 14:13:42.851  209,66  -0,271345  -0,436213  -0,504801  -0,316309  0,235174  9,727691  29,69  0  0,00  0,000  0,000  0,000  0,00  0,00  0,00000000  0,00000000  0  0  16  0  23,1  23,1  23,1  0,000  0,0  0,00  0,00  0,00000000  0,00000000  
812  25.11.2023 14:13:42.883  209,68  -0,173478  -0,390454  -0,451098  -0,330264  0,219732  9,725024  29,69  0  0,00  0,000  0,000  0,000  0,00  0,00  0,00000000  0,00000000  0  0  16  0  23,1  23,1  23,1  0,000  0,0  0,00  0,00  0,00000000  0,00000000  
813  25.11.2023 14:13:42.930  209,70  -0,294413  -0,438661  -0,383740  -0,327310  0,208163  9,715243  29,69  0  0,00  0,000  0,000  0,000  0,00  0,00  0,00000000  0,00000000  0  0  16  0  23,1  23,1  23,1  0,000  0,0  0,00  0,00  0,00000000  0,00000000  
814  25.11.2023 14:13:42.961  209,72  -0,218963  -0,406117  -0,451125  -0,320532  0,229886  9,730194  29,67  0  0,00  0,000  0,000  0,000  0,00  0,00  0,00000000  0,00000000  0  0  16  0  23,1  23,1  23,1  0,000  0,0  0,00  0,00  0,00000000  0,00000000  
815  25.11.2023 14:13:42.976  209,74  -0,362634  -0,361126  -0,481803  -0,332558  0,230949  9,716746  29,67  0  0,00  0,000  0,000  0,000  0,00  0,00  0,00000000  0,00000000  0  0  16  0  23,1  23,1  23,1  0,000  0,0  0,00  0,00  0,00000000  0,00000000  
816  25.11.2023 14:13:42.976  209,76  -0,218877  -0,404983  -0,511566  -0,316434  0,217556  9,712293  29,67  0  0,00  0,000  0,000  0,000  0,00  0,00  0,00000000  0,00000000  0  0  16  0  23,1  23,1  23,1  0,000  0,0  0,00  0,00  0,00000000  0,00000000  
817  25.11.2023 14:13:42.976  209,78  -0,279375  -0,360644  -0,466517  -0,320138  0,220817  9,724454  29,67  0  0,00  0,000  0,000  0,000  0,00  0,00  0,00000000  0,00000000  0  0  16  0  23,1  23,1  23,1  0,000  0,0  0,00  0,00  0,00000000  0,00000000  
818  25.11.2023 14:13:42.992  209,80  -0,264510  -0,375572  -0,473687  -0,334286  0,231054  9,721455  29,67  0  0,00  0,000  0,000  0,000  0,00  0,00  0,00000000  0,00000000  0  0  16  0  23,1  23,1  23,1  0,000  0,0  0,00  0,00  0,00000000  0,00000000  
819  25.11.2023 14:13:43.7  209,82  -0,188761  -0,389133  -0,526373  -0,324173  0,221999  9,721973  29,67  0  0,00  0,000  0,000  0,000  0,00  0,00  0,00000000  0,00000000  0  0  16  0  23,1  23,1  23,1  0,000  0,0  0,00  0,00  0,00000000  0,00000000  
820  25.11.2023 14:13:43.23  209,84  -0,263939  -0,428488  -0,504578  -0,311523  0,233252  9,723431  29,67  0  0,00  0,000  0,000  0,000  0,00  0,00  0,00000000  0,00000000  0  0  16  0  23,1  23,1  23,1  0,000  0,0  0,00  0,00  0,00000000  0,00000000  
821  25.11.2023 14:13:43.39  209,86  -0,226400  -0,389948  -0,504095  -0,323677  0,216546  9,718089  29,67  0  0,00  0,000  0,000  0,000  0,00  0,00  0,00000000  0,00000000  0  0  16  0  23,1  23,1  23,1  0,000  0,0  0,00  0,00  0,00000000  0,00000000  
822  25.11.2023 14:13:43.54  209,88  -0,249632  -0,359127  -0,526116  -0,321742  0,225188  9,733869  29,67  0  0,00  0,000  0,000  0,000  0,00  0,00  0,00000000  0,00000000  0  0  16  0  23,1  23,1  23,1  0,000  0,0  0,00  0,00  0,00000000  0,00000000  
823  25.11.2023 14:13:43.85  209,90  -0,195365  -0,480469  -0,550239  -0,335480  0,225614  9,717638  29,67  0  0,00  0,000  0,000  0,000  0,00  0,00  0,00000000  0,00000000  0  0  16  0  23,1  23,1  23,1  0,000  0,0  0,00  0,00  0,00000000  0,00000000  
824  25.11.2023 14:13:43.100  209,92  -0,241343  -0,412430  -0,534548  -0,340915  0,224676  9,728177  29,67  0  0,00  0,000  0,000  0,000  0,00  0,00  0,00000000  0,00000000  0  0  16  0  23,1  23,1  23,1  0,000  0,0  0,00  0,00  0,00000000  0,00000000  
825  25.11.2023 14:13:43.116  209,94  -0,255513  -0,505990  -0,445309  -0,323563  0,229594  9,713102  29,67  0  0,00  0,000  0,000  0,000  0,00  0,00  0,00000000  0,00000000  0  0  16  0  23,1  23,1  23,1  0,000  0,0  0,00  0,00  0,00000000  0,00000000  
826  25.11.2023 14:13:43.178  209,96  -0,211156  -0,421774  -0,428780  -0,331324  0,229812  9,720528  29,67  0  0,00  0,000  0,000  0,000  0,00  0,00  0,00000000  0,00000000  0  0  16  0  23,1  23,1  23,1  0,000  0,0  0,00  0,00  0,00000000  0,00000000  
827  25.11.2023 14:13:43.178  209,98  -0,241301  -0,390127  -0,504426  -0,327226  0,226222  9,722303  29,67  0  0,00  0,000  0,000  0,000  0,00  0,00  0,00000000  0,00000000  0  0  16  0  23,1  23,1  23,1  0,000  0,0  0,00  0,00  0,00000000  0,00000000  
828  25.11.2023 14:13:43.193  210,00  -0,294692  -0,360611  -0,473874  -0,341084  0,213801  9,721587  29,67  0  0,00  0,000  0,000  0,000  0,00  0,00  0,00000000  0,00000000  0  0  16  0  23,1  23,1  23,1  0,000  0,0  0,00  0,00  0,00000000  0,00000000  
829  25.11.2023 14:13:43.210  210,02  -0,188499  -0,381693  -0,519154  -0,327249  0,219676  9,692256  29,66  0  0,00  0,000  0,000  0,000  0,00  0,00  0,00000000  0,00000000  0  0  16  0  23,1  23,1  23,1  0,000  0,0  0,00  0,00  0,00000000  0,00000000  
830  25.11.2023 14:13:43.225  210,04  -0,234296  -0,360600  -0,443366  -0,321780  0,231709  9,730981  29,66  0  0,00  0,000  0,000  0,000  0,00  0,00  0,00000000  0,00000000  0  0  16  0  23,1  23,1  23,1  0,000  0,0  0,00  0,00  0,00000000  0,00000000  
831  25.11.2023 14:13:43.288  210,06  -0,279458  -0,406829  -0,443801  -0,306332  0,215811  9,751502  29,66  0  0,00  0,000  0,000  0,000  0,00  0,00  0,00000000  0,00000000  0  0  16  0  23,1  23,1  23,1  0,000  0,0  0,00  0,00  0,00000000  0,00000000  
832  25.11.2023 14:13:43.334  210,08  -0,340175  -0,352672  -0,511605  -0,328530  0,209422  9,717914  29,66  0  0,00  0,000  0,000  0,000  0,00  0,00  0,00000000  0,00000000  0  0  16  0  23,1  23,1  23,1  0,000  0,0  0,00  0,00  0,00000000  0,00000000  
833  25.11.2023 14:13:43.334  210,10  -0,203444  -0,427776  -0,511902  -0,316969  0,226730  9,723146  29,66  0  0,00  0,000  0,000  0,000  0,00  0,00  0,00000000  0,00000000  0  0  16  0  23,1  23,1  23,1  0,000  0,0  0,00  0,00  0,00000000  0,00000000  
834  25.11.2023 14:13:43.349  210,12  -0,240471  -0,481227  -0,535648  -0,339201  0,219077  9,717324  29,67  0  0,00  0,000  0,000  0,000  0,00  0,00  0,00000000  0,00000000  0  0  16  0  23,1  23,1  23,1  0,000  0,0  0,00  0,00  0,00000000  0,00000000  
835  25.11.2023 14:13:43.349  210,14  -0,181127  -0,405480  -0,466106  -0,330535  0,246716  9,730260  29,67  0  0,00  0,000  0,000  0,000  0,00  0,00  0,00000000  0,00000000  0  0  16  0  23,1  23,1  23,1  0,000  0,0  0,00  0,00  0,00000000  0,00000000  
836  25.11.2023 14:13:43.365  210,16  -0,218952  -0,359920  -0,473750  -0,329719  0,217963  9,726449  29,67  0  0,00  0,000  0,000  0,000  0,00  0,00  0,00000000  0,00000000  0  0  16  0  23,1  23,1  23,1  0,000  0,0  0,00  0,00  0,00000000  0,00000000  
837  25.11.2023 14:13:43.365  210,18  -0,234480  -0,329052  -0,495921  -0,333889  0,217033  9,738264  29,67  0  0,00  0,000  0,000  0,000  0,00  0,00  0,00000000  0,00000000  0  0  16  0  23,1  23,1  23,1  0,000  0,0  0,00  0,00  0,00000000  0,00000000  
838  25.11.2023 14:13:43.381  210,20  -0,286476  -0,407278  -0,429419  -0,317809  0,214415  9,703200  29,67  0  0,00  0,000  0,000  0,000  0,00  0,00  0,00000000  0,00000000  0  0  16  0  23,1  23,1  23,1  0,000  0,0  0,00  0,00  0,00000000  0,00000000  
839  25.11.2023 14:13:43.412  210,22  -0,249162  -0,367695  -0,481450  -0,320183  0,213162  9,730378  29,64  0  0,00  0,000  0,000  0,000  0,00  0,00  0,00000000  0,00000000  0  0  16  0  23,1  23,1  23,1  0,000  0,0  0,00  0,00  0,00000000  0,00000000  
840  25.11.2023 14:13:43.428  210,24  -0,240905  -0,388900  -0,572793  -0,326809  0,211568  9,705777  29,64  0  0,00  0,000  0,000  0,000  0,00  0,00  0,00000000  0,00000000  0  0  16  0  23,1  23,1  23,1  0,000  0,0  0,00  0,00  0,00000000  0,00000000  
841  25.11.2023 14:13:43.459  210,26  -0,265042  -0,290570  -0,525797  -0,330213  0,224352  9,716678  29,64  0  0,00  0,000  0,000  0,000  0,00  0,00  0,00000000  0,00000000  0  0  16  0  23,1  23,1  23,1  0,000  0,0  0,00  0,00  0,00000000  0,00000000  
842  25.11.2023 14:13:43.459  210,28  -0,317109  -0,375406  -0,512001  -0,341549  0,227561  9,722359  29,64  0  0,00  0,000  0,000  0,000  0,00  0,00  0,00000000  0,00000000  0  0  16  0  23,1  23,1  23,1  0,000  0,0  0,00  0,00  0,00000000  0,00000000  
843  25.11.2023 14:13:43.490  210,30  -0,286499  -0,391013  -0,482179  -0,317743  0,222481  9,718952  29,64  0  0,00  0,000  0,000  0,000  0,00  0,00  0,00000000  0,00000000  0  0  16  0  23,1  23,1  23,1  0,000  0,0  0,00  0,00  0,00000000  0,00000000  
844  25.11.2023 14:13:43.507  210,32  -0,301074  -0,436583  -0,505552  -0,320077  0,228482  9,719132  29,64  0  0,00  0,000  0,000  0,000  0,00  0,00  0,00000000  0,00000000  0  0  16  0  23,1  23,1  23,1  0,000  0,0  0,00  0,00  0,00000000  0,00000000  
845  25.11.2023 14:13:43.522  210,34  -0,279052  -0,423014  -0,399057  -0,325535  0,214622  9,710078  29,64  0  0,00  0,000  0,000  0,000  0,00  0,00  0,00000000  0,00000000  0  0  16  0  23,1  23,1  23,1  0,000  0,0  0,00  0,00  0,00000000  0,00000000  
846  25.11.2023 14:13:43.538  210,36  -0,256252  -0,436784  -0,466998  -0,331482  0,212924  9,712017  29,64  0  0,00  0,000  0,000  0,000  0,00  0,00  0,00000000  0,00000000  0  0  16  0  23,1  23,1  23,1  0,000  0,0  0,00  0,00  0,00000000  0,00000000  
847  25.11.2023 14:13:43.583  210,38  -0,294138  -0,421870  -0,467035  -0,320003  0,227299  9,719997  29,64  0  0,00  0,000  0,000  0,000  0,00  0,00  0,00000000  0,00000000  0  0  16  0  23,1  23,1  23,1  0,000  0,0  0,00  0,00  0,00000000  0,00000000  
848  25.11.2023 14:13:43.583  210,40  -0,233383  -0,438899  -0,346475  -0,344615  0,228054  9,715078  29,64  0  0,00  0,000  0,000  0,000  0,00  0,00  0,00000000  0,00000000  0  0  16  0  23,1  23,1  23,1  0,000  0,0  0,00  0,00  0,00000000  0,00000000  
849  25.11.2023 14:13:43.600  210,42  -0,256732  -0,413964  -0,458855  -0,330166  0,220910  9,724347  29,64  0  0,00  0,000  0,000  0,000  0,00  0,00  0,00000000  0,00000000  0  0  16  0  23,1  23,1  23,1  0,000  0,0  0,00  0,00  0,00000000  0,00000000  
850  25.11.2023 14:13:43.646  210,44  -0,181404  -0,337212  -0,443117  -0,321944  0,220427  9,734444  29,64  0  0,00  0,000  0,000  0,000  0,00  0,00  0,00000000  0,00000000  0  0  16  0  23,1  23,1  23,1  0,000  0,0  0,00  0,00  0,00000000  0,00000000  
851  25.11.2023 14:13:43.661  210,46  -0,248550  -0,460338  -0,429443  -0,328382  0,225041  9,722516  29,64  0  0,00  0,000  0,000  0,000  0,00  0,00  0,00000000  0,00000000  0  0  16  0  23,1  23,1  23,1  0,000  0,0  0,00  0,00  0,00000000  0,00000000  
852  25.11.2023 14:13:43.676  210,48  -0,279552  -0,366950  -0,534176  -0,330857  0,214961  9,725224  29,64  0  0,00  0,000  0,000  0,000  0,00  0,00  0,00000000  0,00000000  0  0  16  0  23,1  23,1  23,1  0,000  0,0  0,00  0,00  0,00000000  0,00000000  
853  25.11.2023 14:13:43.691  210,50  -0,211650  -0,360093  -0,458317  -0,333209  0,224330  9,745370  29,64  0  0,00  0,000  0,000  0,000  0,00  0,00  0,00000000  0,00000000  0  0  16  0  23,1  23,1  23,1  0,000  0,0  0,00  0,00  0,00000000  0,00000000  
854  25.11.2023 14:13:43.707  210,52  -0,324594  -0,422120  -0,466887  -0,329550  0,224489  9,724371  29,66  0  0,00  0,000  0,000  0,000  0,00  0,00  0,00000000  0,00000000  0  0  16  0  23,1  23,1  23,1  0,000  0,0  0,00  0,00  0,00000000  0,00000000  
855  25.11.2023 14:13:43.739  210,54  -0,285974  -0,475008  -0,482853  -0,335509  0,230048  9,699255  29,66  0  0,00  0,000  0,000  0,000  0,00  0,00  0,00000000  0,00000000  0  0  16  0  23,1  23,1  23,1  0,000  0,0  0,00  0,00  0,00000000  0,00000000  
856  25.11.2023 14:13:43.754  210,56  -0,241349  -0,382778  -0,489281  -0,317695  0,223615  9,715880  29,66  0  0,00  0,000  0,000  0,000  0,00  0,00  0,00000000  0,00000000  0  0  16  0  23,1  23,1  23,1  0,000  0,0  0,00  0,00  0,00000000  0,00000000  
857  25.11.2023 14:13:43.754  210,58  -0,233856  -0,413926  -0,451468  -0,331945  0,228187  9,728978  29,66  0  0,00  0,000  0,000  0,000  0,00  0,00  0,00000000  0,00000000  0  0  16  0  23,1  23,1  23,1  0,000  0,0  0,00  0,00  0,00000000  0,00000000  
858  25.11.2023 14:13:43.770  210,60  -0,202669  -0,473673  -0,512875  -0,329113  0,215663  9,731553  29,66  0  0,00  0,000  0,000  0,000  0,00  0,00  0,00000000  0,00000000  0  0  16  0  23,1  23,1  23,1  0,000  0,0  0,00  0,00  0,00000000  0,00000000  
859  25.11.2023 14:13:43.833  210,62  -0,264127  -0,375491  -0,481703  -0,326018  0,229189  9,721850  29,66  0  0,00  0,000  0,000  0,000  0,00  0,00  0,00000000  0,00000000  0  0  16  0  23,1  23,1  23,1  0,000  0,0  0,00  0,00  0,00000000  0,00000000  
860  25.11.2023 14:13:43.849  210,64  -0,195874  -0,413312  -0,466629  -0,323702  0,217042  9,712695  29,66  0  0,00  0,000  0,000  0,000  0,00  0,00  0,00000000  0,00000000  0  0  16  0  23,1  23,1  23,1  0,000  0,0  0,00  0,00  0,00000000  0,00000000  
861  25.11.2023 14:13:43.849  210,66  -0,226011  -0,389294  -0,542287  -0,329754  0,213605  9,717157  29,66  0  0,00  0,000  0,000  0,000  0,00  0,00  0,00000000  0,00000000  0  0  16  0  23,1  23,1  23,1  0,000  0,0  0,00  0,00  0,00000000  0,00000000  
862  25.11.2023 14:13:43.880  210,68  -0,203121  -0,389690  -0,512290  -0,327299  0,225791  9,699401  29,66  0  0,00  0,000  0,000  0,000  0,00  0,00  0,00000000  0,00000000  0  0  16  0  23,1  23,1  23,1  0,000  0,0  0,00  0,00  0,00000000  0,00000000  
863  25.11.2023 14:13:43.880  210,70  -0,279799  -0,352802  -0,473531  -0,330162  0,227752  9,738475  29,66  0  0,00  0,000  0,000  0,000  0,00  0,00  0,00000000  0,00000000  0  0  16  0  23,1  23,1  23,1  0,000  0,0  0,00  0,00  0,00000000  0,00000000  
864  25.11.2023 14:13:43.895  210,72  -0,256552  -0,390679  -0,481697  -0,314092  0,222634  9,729062  29,66  0  0,00  0,000  0,000  0,000  0,00  0,00  0,00000000  0,00000000  0  0  16  0  23,1  23,1  23,1  0,000  0,0  0,00  0,00  0,00000000  0,00000000  
865  25.11.2023 14:13:43.926  210,74  -0,302009  -0,385186  -0,391251  -0,329121  0,218982  9,717487  29,66  0  0,00  0,000  0,000  0,000  0,00  0,00  0,00000000  0,00000000  0  0  16  0  23,1  23,1  23,1  0,000  0,0  0,00  0,00  0,00000000  0,00000000  
866  25.11.2023 14:13:43.941  210,76  -0,241517  -0,398294  -0,473993  -0,322988  0,223815  9,692333  29,66  0  0,00  0,000  0,000  0,000  0,00  0,00  0,00000000  0,00000000  0  0  16  0  23,1  23,1  23,1  0,000  0,0  0,00  0,00  0,00000000  0,00000000  
867  25.11.2023 14:13:43.958  210,78  -0,224815  -0,496860  -0,513633  -0,325423  0,230537  9,698740  29,66  0  0,00  0,000  0,000  0,000  0,00  0,00  0,00000000  0,00000000  0  0  16  0  23,1  23,1  23,1  0,000  0,0  0,00  0,00  0,00000000  0,00000000  
868  25.11.2023 14:13:44.21  210,80  -0,278317  -0,467612  -0,467858  -0,329619  0,228077  9,724285  29,66  0  0,00  0,000  0,000  0,000  0,00  0,00  0,00000000  0,00000000  0  0  16  0  23,1  23,1  23,1  0,000  0,0  0,00  0,00  0,00000000  0,00000000  
869  25.11.2023 14:13:44.21  210,82  -0,248813  -0,399127  -0,436641  -0,319426  0,231264  9,708760  29,65  0  0,00  0,000  0,000  0,000  0,00  0,00  0,00000000  0,00000000  0  0  16  0  23,1  23,1  23,1  0,000  0,0  0,00  0,00  0,00000000  0,00000000  
870  25.11.2023 14:13:44.37  210,84  -0,211279  -0,367783  -0,458780  -0,327313  0,221625  9,731782  29,65  0  0,00  0,000  0,000  0,000  0,00  0,00  0,00000000  0,00000000  0  0  16  0  23,1  23,1  23,1  0,000  0,0  0,00  0,00  0,00000000  0,00000000  
871  25.11.2023 14:13:44.37  210,86  -0,203006  -0,436051  -0,482278  -0,333773  0,231802  9,729469  29,65  0  0,00  0,000  0,000  0,000  0,00  0,00  0,00000000  0,00000000  0  0  16  0  23,1  23,1  23,1  0,000  0,0  0,00  0,00  0,00000000  0,00000000  
872  25.11.2023 14:13:44.52  210,88  -0,218635  -0,397682  -0,496781  -0,320544  0,235115  9,722265  29,65  0  0,00  0,000  0,000  0,000  0,00  0,00  0,00000000  0,00000000  0  0  16  0  23,1  23,1  23,1  0,000  0,0  0,00  0,00  0,00000000  0,00000000  
873  25.11.2023 14:13:44.67  210,90  -0,233219  -0,397196  -0,535213  -0,317813  0,217372  9,701529  29,65  0  0,00  0,000  0,000  0,000  0,00  0,00  0,00000000  0,00000000  0  0  16  0  23,1  23,1  23,1  0,000  0,0  0,00  0,00  0,00000000  0,00000000  
874  25.11.2023 14:13:44.98  210,92  -0,271580  -0,382491  -0,519578  -0,329629  0,225032  9,721260  29,64  0  0,00  0,000  0,000  0,000  0,00  0,00  0,00000000  0,00000000  0  0  16  0  23,1  23,1  23,1  0,000  0,0  0,00  0,00  0,00000000  0,00000000  
875  25.11.2023 14:13:44.114  210,94  -0,271774  -0,336690  -0,519324  -0,329104  0,224365  9,717784  29,64  0  0,00  0,000  0,000  0,000  0,00  0,00  0,00000000  0,00000000  0  0  16  0  23,1  23,1  23,1  0,000  0,0  0,00  0,00  0,00000000  0,00000000  
876  25.11.2023 14:13:44.130  210,96  -0,218442  -0,405055  -0,512106  -0,326567  0,231310  9,707446  29,64  0  0,00  0,000  0,000  0,000  0,00  0,00  0,00000000  0,00000000  0  0  16  0  23,1  23,1  23,1  0,000  0,0  0,00  0,00  0,00000000  0,00000000  
877  25.11.2023 14:13:44.161  210,98  -0,248576  -0,429247  -0,459569  -0,323512  0,239380  9,725029  29,64  0  0,00  0,000  0,000  0,000  0,00  0,00  0,00000000  0,00000000  0  0  16  0  23,1  23,1  23,1  0,000  0,0  0,00  0,00  0,00000000  0,00000000  
878  25.11.2023 14:13:44.177  211,00  -0,211171  -0,413138  -0,481552  -0,327799  0,222919  9,736958  29,64  0  0,00  0,000  0,000  0,000  0,00  0,00  0,00000000  0,00000000  0  0  16  0  23,1  23,1  23,1  0,000  0,0  0,00  0,00  0,00000000  0,00000000  
879  25.11.2023 14:13:44.192  211,02  -0,241490  -0,367355  -0,496643  -0,329693  0,220245  9,720814  29,67  0  0,00  0,000  0,000  0,000  0,00  0,00  0,00000000  0,00000000  0  0  16  0  23,1  23,1  23,1  0,000  0,0  0,00  0,00  0,00000000  0,00000000  
880  25.11.2023 14:13:44.207  211,04  -0,195877  -0,396907  -0,526955  -0,314646  0,225946  9,714453  29,67  0  0,00  0,000  0,000  0,000  0,00  0,00  0,00000000  0,00000000  0  0  16  0  23,1  23,1  23,1  0,000  0,0  0,00  0,00  0,00000000  0,00000000  
881  25.11.2023 14:13:44.239  211,06  -0,271134  -0,435243  -0,557855  -0,327681  0,234287  9,706423  29,67  0  0,00  0,000  0,000  0,000  0,00  0,00  0,00000000  0,00000000  0  0  16  0  23,1  23,1  23,1  0,000  0,0  0,00  0,00  0,00000000  0,00000000  
882  25.11.2023 14:13:44.254  211,08  -0,263744  -0,444064  -0,489740  -0,323685  0,215026  9,732424  29,67  0  0,00  0,000  0,000  0,000  0,00  0,00  0,00000000  0,00000000  0  0  16  0  23,1  23,1  23,1  0,000  0,0  0,00  0,00  0,00000000  0,00000000  
883  25.11.2023 14:13:44.270  211,10  -0,241275  -0,390993  -0,459208  -0,324925  0,221725  9,738276  29,67  0  0,00  0,000  0,000  0,000  0,00  0,00  0,00000000  0,00000000  0  0  16  0  23,1  23,1  23,1  0,000  0,0  0,00  0,00  0,00000000  0,00000000  
884  25.11.2023 14:13:44.300  211,12  -0,263422  -0,436202  -0,505220  -0,320181  0,214905  9,727740  29,65  0  0,00  0,000  0,000  0,000  0,00  0,00  0,00000000  0,00000000  0  0  16  0  23,1  23,1  23,1  0,000  0,0  0,00  0,00  0,00000000  0,00000000  
885  25.11.2023 14:13:44.316  211,14  -0,203250  -0,404924  -0,512135  -0,326753  0,215574  9,728065  29,65  0  0,00  0,000  0,000  0,000  0,00  0,00  0,00000000  0,00000000  0  0  16  0  23,1  23,1  23,1  0,000  0,0  0,00  0,00  0,00000000  0,00000000  
886  25.11.2023 14:13:44.379  211,16  -0,293511  -0,421113  -0,513063  -0,329095  0,226659  9,712714  29,65  0  0,00  0,000  0,000  0,000  0,00  0,00  0,00000000  0,00000000  0  0  16  0  23,1  23,1  23,1  0,000  0,0  0,00  0,00  0,00000000  0,00000000  
887  25.11.2023 14:13:44.394  211,18  -0,264403  -0,384079  -0,428571  -0,329651  0,218997  9,718132  29,65  0  0,00  0,000  0,000  0,000  0,00  0,00  0,00000000  0,00000000  0  0  16  0  23,1  23,1  23,1  0,000  0,0  0,00  0,00  0,00000000  0,00000000  
888  25.11.2023 14:13:44.394  211,20  -0,256528  -0,376719  -0,413846  -0,318345  0,222064  9,696695  29,65  0  0,00  0,000  0,000  0,000  0,00  0,00  0,00000000  0,00000000  0  0  16  0  23,1  23,1  23,1  0,000  0,0  0,00  0,00  0,00000000  0,00000000  
889  25.11.2023 14:13:44.394  211,22  -0,211759  -0,375188  -0,465728  -0,320623  0,219265  9,737150  29,64  0  0,00  0,000  0,000  0,000  0,00  0,00  0,00000000  0,00000000  0  0  16  0  23,1  23,1  23,1  0,000  0,0  0,00  0,00  0,00000000  0,00000000  
890  25.11.2023 14:13:44.410  211,24  -0,256153  -0,405857  -0,489738  -0,339912  0,216814  9,723435  29,64  0  0,00  0,000  0,000  0,000  0,00  0,00  0,00000000  0,00000000  0  0  16  0  23,1  23,1  23,1  0,000  0,0  0,00  0,00  0,00000000  0,00000000  
891  25.11.2023 14:13:44.456  211,26  -0,293791  -0,406672  -0,467461  -0,320236  0,216805  9,733235  29,64  0  0,00  0,000  0,000  0,000  0,00  0,00  0,00000000  0,00000000  0  0  16  0  23,1  23,1  23,1  0,000  0,0  0,00  0,00  0,00000000  0,00000000  
892  25.11.2023 14:13:44.488  211,28  -0,271468  -0,382222  -0,534800  -0,323160  0,215373  9,719384  29,64  0  0,00  0,000  0,000  0,000  0,00  0,00  0,00000000  0,00000000  0  0  16  0  23,1  23,1  23,1  0,000  0,0  0,00  0,00  0,00000000  0,00000000  
893  25.11.2023 14:13:44.488  211,30  -0,195791  -0,397352  -0,504436  -0,342254  0,219703  9,717080  29,64  0  0,00  0,000  0,000  0,000  0,00  0,00  0,00000000  0,00000000  0  0  16  0  23,1  23,1  23,1  0,000  0,0  0,00  0,00  0,00000000  0,00000000  
894  25.11.2023 14:13:44.518  211,32  -0,249671  -0,329183  -0,495892  -0,326079  0,217905  9,725427  29,65  0  0,00  0,000  0,000  0,000  0,00  0,00  0,00000000  0,00000000  0  0  16  0  23,1  23,1  23,1  0,000  0,0  0,00  0,00  0,00000000  0,00000000  
895  25.11.2023 14:13:44.518  211,34  -0,256957  -0,344269  -0,511349  -0,326047  0,222615  9,721742  29,65  0  0,00  0,000  0,000  0,000  0,00  0,00  0,00000000  0,00000000  0  0  16  0  23,1  23,1  23,1  0,000  0,0  0,00  0,00  0,00000000  0,00000000  
896  25.11.2023 14:13:44.534  211,36  -0,233333  -0,421066  -0,482285  -0,342874  0,220638  9,734499  29,65  0  0,00  0,000  0,000  0,000  0,00  0,00  0,00000000  0,00000000  0  0  16  0  23,1  23,1  23,1  0,000  0,0  0,00  0,00  0,00000000  0,00000000  
897  25.11.2023 14:13:44.594  211,38  -0,331792  -0,445854  -0,429662  -0,329010  0,222342  9,705893  29,65  0  0,00  0,000  0,000  0,000  0,00  0,00  0,00000000  0,00000000  0  0  16  0  23,1  23,1  23,1  0,000  0,0  0,00  0,00  0,00000000  0,00000000  
898  25.11.2023 14:13:44.594  211,40  -0,211459  -0,359263  -0,503805  -0,322405  0,227100  9,708221  29,65  0  0,00  0,000  0,000  0,000  0,00  0,00  0,00000000  0,00000000  0  0  16  0  23,1  23,1  23,1  0,000  0,0  0,00  0,00  0,00000000  0,00000000  
899  25.11.2023 14:13:44.594  211,42  -0,264154  -0,376205  -0,443961  -0,319350  0,240566  9,726665  29,66  0  0,00  0,000  0,000  0,000  0,00  0,00  0,00000000  0,00000000  0  0  16  0  23,1  23,1  23,1  0,000  0,0  0,00  0,00  0,00000000  0,00000000  
900  25.11.2023 14:13:44.624  211,44  -0,248386  -0,452019  -0,467352  -0,317632  0,228969  9,746172  29,66  0  0,00  0,000  0,000  0,000  0,00  0,00  0,00000000  0,00000000  0  0  16  0  23,1  23,1  23,1  0,000  0,0  0,00  0,00  0,00000000  0,00000000  
901  25.11.2023 14:13:44.656  211,46  -0,287297  -0,360656  -0,466097  -0,324854  0,219095  9,725876  29,66  0  0,00  0,000  0,000  0,000  0,00  0,00  0,00000000  0,00000000  0  0  16  0  23,1  23,1  23,1  0,000  0,0  0,00  0,00  0,00000000  0,00000000  
902  25.11.2023 14:13:44.656  211,48  -0,271600  -0,382631  -0,512011  -0,329036  0,226729  9,747991  29,66  0  0,00  0,000  0,000  0,000  0,00  0,00  0,00000000  0,00000000  0  0  16  0  23,1  23,1  23,1  0,000  0,0  0,00  0,00  0,00000000  0,00000000  
903  25.11.2023 14:13:44.671  211,50  -0,301180  -0,436278  -0,520504  -0,324928  0,216921  9,705608  29,66  0  0,00  0,000  0,000  0,000  0,00  0,00  0,00000000  0,00000000  0  0  16  0  23,1  23,1  23,1  0,000  0,0  0,00  0,00  0,00000000  0,00000000  
904  25.11.2023 14:13:44.702  211,52  -0,301117  -0,452263  -0,482877  -0,334420  0,223982  9,694895  29,65  0  0,00  0,000  0,000  0,000  0,00  0,00  0,00000000  0,00000000  0  0  16  0  23,1  23,1  23,1  0,000  0,0  0,00  0,00  0,00000000  0,00000000  
905  25.11.2023 14:13:44.765  211,54  -0,256054  -0,406736  -0,444610  -0,326164  0,220686  9,714304  29,65  0  0,00  0,000  0,000  0,000  0,00  0,00  0,00000000  0,00000000  0  0  16  0  23,1  23,1  23,1  0,000  0,0  0,00  0,00  0,00000000  0,00000000  
906  25.11.2023 14:13:44.765  211,56  -0,294290  -0,422420  -0,436680  -0,332055  0,216064  9,719725  29,65  0  0,00  0,000  0,000  0,000  0,00  0,00  0,00000000  0,00000000  0  0  16  0  23,1  23,1  23,1  0,000  0,0  0,00  0,00  0,00000000  0,00000000  
